{"total_count": 126, "results": [{"last_update": "2025-11-29T21:22:57+00:00", "available_bike_stands": "3", "number": "8", "available_bikes": "21", "name": "BOUCHERIE", "address": "4, rue de la Boucherie", "rental_methods": "creditcard", "bike_stands": 24, "position": {"lon": -1.557112, "lat": 47.216201}}, {"last_update": "2025-11-29T21:22:57+00:00", "available_bike_stands": "29", "number": "10", "available_bikes": "11", "name": "PICASSO", "address": "12, mail Pablo Picasso", "rental_methods": null, "bike_stands": 40, "position": {"lon": -1.533796, "lat": 47.216207}}, {"last_update": "2025-11-29T21:22:57+00:00", "available_bike_stands": "11", "number": "13", "available_bikes": "9", "name": "BRETAGNE SUD", "address": "3, rue Pierre Chereau", "rental_methods": null, "bike_stands": 20, "position": {"lon": -1.559161, "lat": 47.216788}}, {"last_update": "2025-11-29T21:22:57+00:00", "available_bike_stands": "11", "number": "16", "available_bikes": "4", "name": "\u00c9DOUARD NORMAND", "address": "Face au 7, place Edouard Normand", "rental_methods": null, "bike_stands": 15, "position": {"lon": -1.563419, "lat": 47.219028}}, {"last_update": "2025-11-29T21:22:57+00:00", "available_bike_stands": "0", "number": "21", "available_bikes": "16", "name": "TALENSAC SUD", "address": "6, rue Talensac", "rental_methods": null, "bike_stands": 16, "position": {"lon": -1.556476, "lat": 47.221143}}, {"last_update": "2025-11-29T21:22:57+00:00", "available_bike_stands": "7", "number": "23", "available_bikes": "4", "name": "BUAT", "address": "118, rue de Coulmiers", "rental_methods": null, "bike_stands": 11, "position": {"lon": -1.542405, "lat": 47.227145}}, {"last_update": "2025-11-29T21:22:57+00:00", "available_bike_stands": "7", "number": "25", "available_bikes": "9", "name": "DALBY", "address": "61, boulevard Ernest Dalby", "rental_methods": "creditcard", "bike_stands": 18, "position": {"lon": -1.530096, "lat": 47.223919}}, {"last_update": "2025-11-29T21:22:57+00:00", "available_bike_stands": "20", "number": "31", "available_bikes": "2", "name": "BOURSE", "address": "All\u00e9e de la Bourse - Boulevard des Nations-Unies", "rental_methods": "creditcard", "bike_stands": 22, "position": {"lon": -1.559087, "lat": 47.212083}}, {"last_update": "2025-11-29T21:22:57+00:00", "available_bike_stands": "2", "number": "33", "available_bikes": "13", "name": "RACINE", "address": "5, rue Racine", "rental_methods": null, "bike_stands": 15, "position": {"lon": -1.563141, "lat": 47.213523}}, {"last_update": "2025-11-29T21:22:57+00:00", "available_bike_stands": "3", "number": "35", "available_bikes": "12", "name": "JEAN V", "address": "Rue Pierre Louis Ath\u00e9nas", "rental_methods": null, "bike_stands": 15, "position": {"lon": -1.564973, "lat": 47.212369}}, {"last_update": "2025-11-29T21:22:57+00:00", "available_bike_stands": "15", "number": "39", "available_bikes": "9", "name": "QUAI MONCOUSU", "address": "1, quai Moncousu - Pont Haudaudine", "rental_methods": null, "bike_stands": 24, "position": {"lon": -1.555233, "lat": 47.209407}}, {"last_update": "2025-11-29T21:22:57+00:00", "available_bike_stands": "17", "number": "46", "available_bikes": "9", "name": "R\u00c9PUBLIQUE", "address": "3, place de la R\u00e9publique", "rental_methods": null, "bike_stands": 26, "position": {"lon": -1.555183, "lat": 47.205324}}, {"last_update": "2025-11-29T21:22:57+00:00", "available_bike_stands": "10", "number": "70", "available_bikes": "60", "name": "GARE DE NANTES SUD", "address": "Quai de Malakoff - Canal Saint-F\u00e9lix", "rental_methods": "creditcard", "bike_stands": 70, "position": {"lon": -1.542844, "lat": 47.215505}}, {"last_update": "2025-11-29T21:22:57+00:00", "available_bike_stands": "8", "number": "87", "available_bikes": "7", "name": "ANATOLE FRANCE", "address": "41, rue Alexandre Dumas - Place Anatole France", "rental_methods": null, "bike_stands": 15, "position": {"lon": -1.571374, "lat": 47.223605}}, {"last_update": "2025-11-29T21:22:57+00:00", "available_bike_stands": "15", "number": "94", "available_bikes": "5", "name": "PETIT PORT", "address": "Boulevard du Petit Port - place du 8 mai 1945", "rental_methods": null, "bike_stands": 20, "position": {"lon": -1.556345, "lat": 47.243264}}, {"last_update": "2025-11-29T21:22:57+00:00", "available_bike_stands": "7", "number": "97", "available_bikes": "12", "name": "SAINT DONATIEN", "address": "Place du 51\u00e8me R\u00e9giment d'Artillerie", "rental_methods": null, "bike_stands": 19, "position": {"lon": -1.540293, "lat": 47.229088}}, {"last_update": "2025-11-29T21:22:57+00:00", "available_bike_stands": "11", "number": "121", "available_bikes": "4", "name": "VICTOR RICHARD", "address": "12, place Victor Richard", "rental_methods": null, "bike_stands": 15, "position": {"lon": -1.533329, "lat": 47.228614}}, {"last_update": "2025-11-29T21:22:57+00:00", "available_bike_stands": "6", "number": "125", "available_bikes": "12", "name": "PLACIS", "address": "Avenue de la Martelli\u00e8re - SAINT-S\u00c9BASTIEN-SUR-LOIRE", "rental_methods": null, "bike_stands": 18, "position": {"lon": -1.520481, "lat": 47.199378}}, {"last_update": "2025-11-29T21:22:57+00:00", "available_bike_stands": "18", "number": "1", "available_bikes": "15", "name": "PR\u00c9FECTURE", "address": "Place du Port Communeau", "rental_methods": "creditcard", "bike_stands": 33, "position": {"lon": -1.554891, "lat": 47.21984}}, {"last_update": "2025-11-29T21:22:57+00:00", "available_bike_stands": "5", "number": "5", "available_bikes": "13", "name": "BROSSARD", "address": "12, All\u00e9e Duquesne", "rental_methods": null, "bike_stands": 18, "position": {"lon": -1.556749, "lat": 47.218837}}]}