{"total_count": 126, "results": [{"last_update": "2025-12-04T10:26:58+00:00", "available_bike_stands": "24", "number": "1", "available_bikes": "9", "name": "PR\u00c9FECTURE", "address": "Place du Port Communeau", "rental_methods": "creditcard", "bike_stands": 33, "position": {"lon": -1.554891, "lat": 47.21984}}, {"last_update": "2025-12-04T10:26:58+00:00", "available_bike_stands": "5", "number": "15", "available_bikes": "12", "name": "ARISTIDE BRIAND", "address": "Place Aristide Briand", "rental_methods": null, "bike_stands": 17, "position": {"lon": -1.562987, "lat": 47.217185}}, {"last_update": "2025-12-04T10:26:58+00:00", "available_bike_stands": "6", "number": "16", "available_bikes": "9", "name": "\u00c9DOUARD NORMAND", "address": "Face au 7, place Edouard Normand", "rental_methods": null, "bike_stands": 15, "position": {"lon": -1.563419, "lat": 47.219028}}, {"last_update": "2025-12-04T10:26:58+00:00", "available_bike_stands": "6", "number": "26", "available_bikes": "9", "name": "GUIST'HAU SUD", "address": "30, boulevard Gabriel Guist'Hau - Rue Harouys", "rental_methods": null, "bike_stands": 15, "position": {"lon": -1.567005, "lat": 47.216828}}, {"last_update": "2025-12-04T10:26:58+00:00", "available_bike_stands": "25", "number": "30", "available_bikes": "8", "name": "COMMERCE", "address": "Place du Commerce - Cours Franklin Roosevelt", "rental_methods": null, "bike_stands": 33, "position": {"lon": -1.555505, "lat": 47.213888}}, {"last_update": "2025-12-04T10:26:58+00:00", "available_bike_stands": "4", "number": "35", "available_bikes": "10", "name": "JEAN V", "address": "Rue Pierre Louis Ath\u00e9nas", "rental_methods": null, "bike_stands": 15, "position": {"lon": -1.564973, "lat": 47.212369}}, {"last_update": "2025-12-04T10:26:58+00:00", "available_bike_stands": "5", "number": "38", "available_bikes": "35", "name": "RICORDEAU", "address": "Place Alexis-Ricordeau - Chauss\u00e9e de la Madeleine", "rental_methods": "creditcard", "bike_stands": 40, "position": {"lon": -1.553049, "lat": 47.212108}}, {"last_update": "2025-12-04T10:26:58+00:00", "available_bike_stands": "0", "number": "49", "available_bikes": "0", "name": "DUCHESSE ANNE", "address": "2, place de la Duchesse Anne", "rental_methods": null, "bike_stands": 15, "position": {"lon": -1.547253, "lat": 47.2167}}, {"last_update": "2025-12-04T10:26:58+00:00", "available_bike_stands": "17", "number": "54", "available_bikes": "17", "name": "CIT\u00c9 INTERNATIONALE DES CONGR\u00c8S", "address": "2, rue de Jemmapes - 2, avenue Jean-Claude Bonduelle", "rental_methods": "creditcard", "bike_stands": 34, "position": {"lon": -1.544953, "lat": 47.21318}}, {"last_update": "2025-12-04T10:26:58+00:00", "available_bike_stands": "16", "number": "59", "available_bikes": "8", "name": "STADE SAUPIN", "address": "35, quai de Malakoff", "rental_methods": null, "bike_stands": 24, "position": {"lon": -1.540181, "lat": 47.213682}}, {"last_update": "2025-12-04T10:26:58+00:00", "available_bike_stands": "14", "number": "63", "available_bikes": "1", "name": "JARDIN DES PLANTES", "address": "Rue Stanislas Baudry  - face rue Georges Cl\u00e9menceau", "rental_methods": null, "bike_stands": 15, "position": {"lon": -1.544719, "lat": 47.219834}}, {"last_update": "2025-12-04T10:26:58+00:00", "available_bike_stands": "8", "number": "69", "available_bikes": "7", "name": "MANUFACTURE", "address": "11 bis, boulevard Stalingrad", "rental_methods": null, "bike_stands": 15, "position": {"lon": -1.535847, "lat": 47.219216}}, {"last_update": "2025-12-04T10:26:58+00:00", "available_bike_stands": "7", "number": "72", "available_bikes": "8", "name": "BELLAMY-GU\u00c9 MOREAU", "address": "138, rue Paul Bellamy", "rental_methods": null, "bike_stands": 15, "position": {"lon": -1.561806, "lat": 47.228626}}, {"last_update": "2025-12-04T10:26:58+00:00", "available_bike_stands": "13", "number": "100", "available_bikes": "7", "name": "GR\u00c9NERAIE", "address": "Parc de la Gr\u00e9neraie - NANTES", "rental_methods": "creditcard", "bike_stands": 20, "position": {"lon": -1.534718, "lat": 47.199923}}, {"last_update": "2025-12-04T10:26:58+00:00", "available_bike_stands": "20", "number": "101", "available_bikes": "8", "name": "PIRMIL", "address": "13, rue Esnoul des Ch\u00e2telets", "rental_methods": "creditcard", "bike_stands": 28, "position": {"lon": -1.541568, "lat": 47.196531}}, {"last_update": "2025-12-04T10:26:58+00:00", "available_bike_stands": "19", "number": "108", "available_bikes": "5", "name": "BONNE GARDE", "address": "Face 97, rue Bonne Garde", "rental_methods": null, "bike_stands": 24, "position": {"lon": -1.532105, "lat": 47.197217}}, {"last_update": "2025-12-04T10:26:58+00:00", "available_bike_stands": "11", "number": "116", "available_bikes": "8", "name": "LIBERT\u00c9", "address": "Rond-Point de Louisiane", "rental_methods": null, "bike_stands": 20, "position": {"lon": -1.588395, "lat": 47.198124}}, {"last_update": "2025-12-04T10:26:58+00:00", "available_bike_stands": "6", "number": "119", "available_bikes": "19", "name": "ZOLA", "address": "Place Emile Zola", "rental_methods": null, "bike_stands": 25, "position": {"lon": -1.586108, "lat": 47.213859}}, {"last_update": "2025-12-04T10:26:58+00:00", "available_bike_stands": "11", "number": "2", "available_bikes": "9", "name": "H\u00d4TEL DE VILLE", "address": "29, rue de Strasbourg", "rental_methods": null, "bike_stands": 20, "position": {"lon": -1.553484, "lat": 47.218572}}, {"last_update": "2025-12-04T10:26:58+00:00", "available_bike_stands": "2", "number": "13", "available_bikes": "18", "name": "BRETAGNE SUD", "address": "3, rue Pierre Chereau", "rental_methods": null, "bike_stands": 20, "position": {"lon": -1.559161, "lat": 47.216788}}, {"last_update": "2025-12-04T10:26:58+00:00", "available_bike_stands": "9", "number": "24", "available_bikes": "6", "name": "VERSAILLES", "address": "25, quai de Versailles - Ile de Versailles", "rental_methods": null, "bike_stands": 15, "position": {"lon": -1.553712, "lat": 47.224515}}, {"last_update": "2025-12-04T10:26:58+00:00", "available_bike_stands": "4", "number": "41", "available_bikes": "14", "name": "BRUNELI\u00c8RE", "address": "88, quai de la Fosse", "rental_methods": null, "bike_stands": 18, "position": {"lon": -1.56823, "lat": 47.208905}}, {"last_update": "2025-12-04T10:26:58+00:00", "available_bike_stands": "14", "number": "44", "available_bikes": "17", "name": "PALAIS DE JUSTICE", "address": "19, quai Fran\u00e7ois Mitterand - 1, rue Olympe de Gouges", "rental_methods": "creditcard", "bike_stands": 31, "position": {"lon": -1.561173, "lat": 47.208317}}, {"last_update": "2025-12-04T10:26:58+00:00", "available_bike_stands": "12", "number": "46", "available_bikes": "14", "name": "R\u00c9PUBLIQUE", "address": "3, place de la R\u00e9publique", "rental_methods": null, "bike_stands": 26, "position": {"lon": -1.555183, "lat": 47.205324}}, {"last_update": "2025-12-04T10:26:58+00:00", "available_bike_stands": "9", "number": "58", "available_bikes": "6", "name": "PALAIS DES SPORTS", "address": "8,rue Andr\u00e9 Tardieu", "rental_methods": null, "bike_stands": 15, "position": {"lon": -1.536657, "lat": 47.208465}}, {"last_update": "2025-12-04T10:26:58+00:00", "available_bike_stands": "6", "number": "64", "available_bikes": "4", "name": "SAINT CL\u00c9MENT", "address": "24, rue du Mar\u00e9chal Joffre", "rental_methods": null, "bike_stands": 10, "position": {"lon": -1.547099, "lat": 47.221785}}, {"last_update": "2025-12-04T10:26:58+00:00", "available_bike_stands": "8", "number": "78", "available_bikes": "13", "name": "DE GAULLE", "address": "7, rue Fran\u00e7oise Giroud - Boulevard G\u00e9n\u00e9ral de Gaulle", "rental_methods": null, "bike_stands": 21, "position": {"lon": -1.540514, "lat": 47.208444}}, {"last_update": "2025-12-04T10:26:58+00:00", "available_bike_stands": "11", "number": "82", "available_bikes": "5", "name": "S\u00c9BILLEAU", "address": "120, rue Dr Jules S\u00e9billeau", "rental_methods": "creditcard", "bike_stands": 16, "position": {"lon": -1.533118, "lat": 47.206758}}, {"last_update": "2025-12-04T10:26:58+00:00", "available_bike_stands": "1", "number": "86", "available_bikes": "15", "name": "HAUTS PAV\u00c9S", "address": "Rue de Berry - Rue des Hauts Pav\u00e9s", "rental_methods": null, "bike_stands": 16, "position": {"lon": -1.567502, "lat": 47.225471}}, {"last_update": "2025-12-04T10:26:58+00:00", "available_bike_stands": "4", "number": "87", "available_bikes": "11", "name": "ANATOLE FRANCE", "address": "41, rue Alexandre Dumas - Place Anatole France", "rental_methods": null, "bike_stands": 15, "position": {"lon": -1.571374, "lat": 47.223605}}, {"last_update": "2025-12-04T10:26:58+00:00", "available_bike_stands": "13", "number": "89", "available_bikes": "1", "name": "SAINT-AIGNAN", "address": "65, boulevard Saint-Aignan", "rental_methods": null, "bike_stands": 14, "position": {"lon": -1.578689, "lat": 47.207439}}, {"last_update": "2025-12-04T10:26:58+00:00", "available_bike_stands": "12", "number": "90", "available_bikes": "3", "name": "PROC\u00c9", "address": "Angle boulevard Gaston Serpette - Boulevard Auguste Pageot", "rental_methods": null, "bike_stands": 15, "position": {"lon": -1.576613, "lat": 47.224195}}, {"last_update": "2025-12-04T10:26:58+00:00", "available_bike_stands": "3", "number": "92", "available_bikes": "11", "name": "ROND POINT DE RENNES", "address": "Angle boulevard Lelasseur - Rue Paul Bellamy", "rental_methods": "creditcard", "bike_stands": 14, "position": {"lon": -1.566059, "lat": 47.233028}}, {"last_update": "2025-12-04T10:26:58+00:00", "available_bike_stands": "7", "number": "99", "available_bikes": "8", "name": "ST JACQUES", "address": "Rue Saint Jacques", "rental_methods": null, "bike_stands": 15, "position": {"lon": -1.536541, "lat": 47.195899}}, {"last_update": "2025-12-04T10:26:58+00:00", "available_bike_stands": "23", "number": "102", "available_bikes": "1", "name": "GARE DE PONT ROUSSEAU", "address": "Rue de la Gare - REZ\u00c9", "rental_methods": "creditcard", "bike_stands": 24, "position": {"lon": -1.549212, "lat": 47.19316}}, {"last_update": "2025-12-04T10:26:58+00:00", "available_bike_stands": "6", "number": "106", "available_bikes": "9", "name": "GARENNES", "address": "2, rue des Garennes", "rental_methods": null, "bike_stands": 15, "position": {"lon": -1.5787, "lat": 47.202127}}, {"last_update": "2025-12-04T10:26:58+00:00", "available_bike_stands": "9", "number": "112", "available_bikes": "6", "name": "TRENTEMOULT SABLIERES", "address": "Rue de la Californie, 44400 REZE", "rental_methods": null, "bike_stands": 15, "position": {"lon": -1.585519, "lat": 47.190767}}, {"last_update": "2025-12-04T10:26:58+00:00", "available_bike_stands": "14", "number": "113", "available_bikes": "7", "name": "MAIRIE DE REZ\u00c9", "address": "Place Jean-Baptiste Daviais - REZ\u00c9", "rental_methods": null, "bike_stands": 21, "position": {"lon": -1.569362, "lat": 47.191117}}, {"last_update": "2025-12-04T10:26:58+00:00", "available_bike_stands": "22", "number": "10", "available_bikes": "18", "name": "PICASSO", "address": "12, mail Pablo Picasso", "rental_methods": null, "bike_stands": 40, "position": {"lon": -1.533796, "lat": 47.216207}}, {"last_update": "2025-12-04T10:26:58+00:00", "available_bike_stands": "2", "number": "18", "available_bikes": "12", "name": "VIARME", "address": "23, place Viarme", "rental_methods": null, "bike_stands": 14, "position": {"lon": -1.563308, "lat": 47.221429}}, {"last_update": "2025-12-04T10:26:58+00:00", "available_bike_stands": "9", "number": "23", "available_bikes": "2", "name": "BUAT", "address": "118, rue de Coulmiers", "rental_methods": null, "bike_stands": 11, "position": {"lon": -1.542405, "lat": 47.227145}}, {"last_update": "2025-12-04T10:26:58+00:00", "available_bike_stands": "12", "number": "42", "available_bikes": "19", "name": "GARE MARITIME", "address": "Quai Ernest Renaud - Place Jacksonville", "rental_methods": "creditcard", "bike_stands": 31, "position": {"lon": -1.57261, "lat": 47.206598}}, {"last_update": "2025-12-04T10:26:58+00:00", "available_bike_stands": "13", "number": "66", "available_bikes": "2", "name": "CHANZY", "address": "Face au 23, avenue Chanzy", "rental_methods": null, "bike_stands": 15, "position": {"lon": -1.548, "lat": 47.22543}}, {"last_update": "2025-12-04T10:26:58+00:00", "available_bike_stands": "7", "number": "68", "available_bikes": "8", "name": "LIVET", "address": "65, rue Dufour", "rental_methods": "creditcard", "bike_stands": 15, "position": {"lon": -1.545212, "lat": 47.224068}}, {"last_update": "2025-12-04T10:26:58+00:00", "available_bike_stands": "15", "number": "76", "available_bikes": "0", "name": "REN\u00c9 BOUHIER", "address": "8, place Ren\u00e9 Bouhier", "rental_methods": null, "bike_stands": 15, "position": {"lon": -1.570515, "lat": 47.209429}}, {"last_update": "2025-12-04T10:26:58+00:00", "available_bike_stands": "8", "number": "85", "available_bikes": "6", "name": "BEL AIR", "address": "102, rue Paul Bellamy", "rental_methods": null, "bike_stands": 14, "position": {"lon": -1.560023, "lat": 47.226394}}, {"last_update": "2025-12-04T10:26:58+00:00", "available_bike_stands": "8", "number": "107", "available_bikes": "7", "name": "MOUTONNERIE", "address": "Rue Francisco Ferrer", "rental_methods": null, "bike_stands": 15, "position": {"lon": -1.532947, "lat": 47.219901}}, {"last_update": "2025-12-04T10:26:58+00:00", "available_bike_stands": "10", "number": "124", "available_bikes": "15", "name": "PAS ENCHANT\u00c9S", "address": "Boulevard des Pas Enchant\u00e9s - SAINT-S\u00c9BASTIEN-SUR-LOIRE", "rental_methods": null, "bike_stands": 25, "position": {"lon": -1.522726, "lat": 47.205239}}, {"last_update": "2025-12-04T10:26:58+00:00", "available_bike_stands": "12", "number": "126", "available_bikes": "4", "name": "GARE DE CHANTENAY", "address": "7, boulevard Mar\u00e9chal Alphonse Juin", "rental_methods": null, "bike_stands": 16, "position": {"lon": -1.594891, "lat": 47.19773}}, {"last_update": "2025-12-04T10:26:58+00:00", "available_bike_stands": "6", "number": "4", "available_bikes": "6", "name": "MOULIN", "address": "18, rue du Moulin", "rental_methods": null, "bike_stands": 12, "position": {"lon": -1.554385, "lat": 47.216668}}, {"last_update": "2025-12-04T10:26:58+00:00", "available_bike_stands": "14", "number": "5", "available_bikes": "4", "name": "BROSSARD", "address": "12, All\u00e9e Duquesne", "rental_methods": null, "bike_stands": 18, "position": {"lon": -1.556749, "lat": 47.218837}}, {"last_update": "2025-12-04T10:26:58+00:00", "available_bike_stands": "14", "number": "48", "available_bikes": "0", "name": "VERDUN", "address": "15, rue de Verdun", "rental_methods": "creditcard", "bike_stands": 14, "position": {"lon": -1.55185, "lat": 47.217505}}, {"last_update": "2025-12-04T10:26:58+00:00", "available_bike_stands": "17", "number": "57", "available_bikes": "3", "name": "GA\u00cbTAN RONDEAU", "address": "20, rue Ga\u00ebtan Rondeau", "rental_methods": null, "bike_stands": 20, "position": {"lon": -1.537582, "lat": 47.205396}}, {"last_update": "2025-12-04T10:26:58+00:00", "available_bike_stands": "38", "number": "60", "available_bikes": "2", "name": "GARE DE NANTES NORD", "address": "27 boulevard Stalingrad", "rental_methods": "creditcard", "bike_stands": 40, "position": {"lon": -1.543517, "lat": 47.217212}}, {"last_update": "2025-12-04T10:26:58+00:00", "available_bike_stands": "38", "number": "62", "available_bikes": "1", "name": "GARE DE NANTES NORD 2", "address": "22-23 boulevard de Stalingrad", "rental_methods": null, "bike_stands": 40, "position": {"lon": -1.541751, "lat": 47.218103}}, {"last_update": "2025-12-04T10:26:58+00:00", "available_bike_stands": "13", "number": "65", "available_bikes": "1", "name": "COURS SULLY", "address": "9, cours Sully", "rental_methods": null, "bike_stands": 15, "position": {"lon": -1.551666, "lat": 47.222587}}, {"last_update": "2025-12-04T10:26:58+00:00", "available_bike_stands": "10", "number": "75", "available_bikes": "5", "name": "LAMORICI\u00c8RE", "address": "14 bis, rue Lamorici\u00e8re - Place Beaumanoir", "rental_methods": null, "bike_stands": 15, "position": {"lon": -1.571369, "lat": 47.212309}}, {"last_update": "2025-12-04T10:26:58+00:00", "available_bike_stands": "26", "number": "93", "available_bikes": "14", "name": "FACULT\u00c9S", "address": "A l'angle route de la Joneli\u00e8re -  Boulevard Guy Mollet", "rental_methods": "creditcard", "bike_stands": 40, "position": {"lon": -1.555309, "lat": 47.246298}}, {"last_update": "2025-12-04T10:26:58+00:00", "available_bike_stands": "14", "number": "98", "available_bikes": "1", "name": "HUIT MAI", "address": "Avenue de la Lib\u00e9ration - rue Eug\u00e8ne Pottier - REZ\u00c9", "rental_methods": null, "bike_stands": 15, "position": {"lon": -1.550828, "lat": 47.189212}}, {"last_update": "2025-12-04T10:26:58+00:00", "available_bike_stands": "13", "number": "109", "available_bikes": "8", "name": "CLOS TOREAU", "address": "Face 31, boulevard Emile Gabory", "rental_methods": null, "bike_stands": 21, "position": {"lon": -1.529313, "lat": 47.19426}}, {"last_update": "2025-12-04T10:26:58+00:00", "available_bike_stands": "4", "number": "117", "available_bikes": "10", "name": "MAIRIE DE CHANTENAY", "address": "Place de la Libert\u00e9", "rental_methods": null, "bike_stands": 15, "position": {"lon": -1.58785, "lat": 47.20656}}, {"last_update": "2025-12-04T10:26:58+00:00", "available_bike_stands": "9", "number": "125", "available_bikes": "9", "name": "PLACIS", "address": "Avenue de la Martelli\u00e8re - SAINT-S\u00c9BASTIEN-SUR-LOIRE", "rental_methods": null, "bike_stands": 18, "position": {"lon": -1.520481, "lat": 47.199378}}, {"last_update": "2025-12-04T10:26:58+00:00", "available_bike_stands": "20", "number": "7", "available_bikes": "10", "name": "BARILLERIE", "address": "2, all\u00e9e Penthi\u00e8vre", "rental_methods": null, "bike_stands": 30, "position": {"lon": -1.556126, "lat": 47.215331}}, {"last_update": "2025-12-04T10:26:58+00:00", "available_bike_stands": "6", "number": "32", "available_bikes": "8", "name": "FOCH", "address": "Place Foch", "rental_methods": "creditcard", "bike_stands": 14, "position": {"lon": -1.550185, "lat": 47.219248}}, {"last_update": "2025-12-04T10:26:58+00:00", "available_bike_stands": "9", "number": "37", "available_bikes": "18", "name": "F\u00c9LIX \u00c9BOU\u00c9", "address": "1, all\u00e9e de l'\u00cele Gloriette", "rental_methods": null, "bike_stands": 27, "position": {"lon": -1.556825, "lat": 47.211465}}, {"last_update": "2025-12-04T10:26:58+00:00", "available_bike_stands": "6", "number": "39", "available_bikes": "18", "name": "QUAI MONCOUSU", "address": "1, quai Moncousu - Pont Haudaudine", "rental_methods": null, "bike_stands": 24, "position": {"lon": -1.555233, "lat": 47.209407}}, {"last_update": "2025-12-04T10:26:58+00:00", "available_bike_stands": "11", "number": "55", "available_bikes": "6", "name": "MAGELLAN", "address": "11, rue de Belfort", "rental_methods": null, "bike_stands": 17, "position": {"lon": -1.544298, "lat": 47.210781}}, {"last_update": "2025-12-04T10:26:58+00:00", "available_bike_stands": "5", "number": "56", "available_bikes": "10", "name": "VINCENT GACHE", "address": "9, rue Fran\u00e7ois Albert", "rental_methods": null, "bike_stands": 15, "position": {"lon": -1.541778, "lat": 47.206799}}, {"last_update": "2025-12-04T10:26:58+00:00", "available_bike_stands": "9", "number": "61", "available_bikes": "6", "name": "LIEU UNIQUE", "address": "23, quai Ferdinand Favre", "rental_methods": null, "bike_stands": 15, "position": {"lon": -1.546825, "lat": 47.215394}}, {"last_update": "2025-12-04T10:26:58+00:00", "available_bike_stands": "58", "number": "70", "available_bikes": "12", "name": "GARE DE NANTES SUD", "address": "Quai de Malakoff - Canal Saint-F\u00e9lix", "rental_methods": "creditcard", "bike_stands": 70, "position": {"lon": -1.542844, "lat": 47.215505}}, {"last_update": "2025-12-04T10:26:58+00:00", "available_bike_stands": "7", "number": "71", "available_bikes": "7", "name": "TALENSAC NORD", "address": "18, rue Talensac - 26, rue de Bel Air", "rental_methods": null, "bike_stands": 14, "position": {"lon": -1.558941, "lat": 47.221854}}, {"last_update": "2025-12-04T10:26:58+00:00", "available_bike_stands": "11", "number": "81", "available_bikes": "3", "name": "MANGIN", "address": "Devant le 8, place Mangin", "rental_methods": null, "bike_stands": 14, "position": {"lon": -1.545507, "lat": 47.200956}}, {"last_update": "2025-12-04T10:26:58+00:00", "available_bike_stands": "3", "number": "83", "available_bikes": "11", "name": "MILLERAND", "address": "9, boulevard Alexandre Millerand - 28, boulevard Georges Pompidou", "rental_methods": null, "bike_stands": 14, "position": {"lon": -1.53018, "lat": 47.2082}}, {"last_update": "2025-12-04T10:26:58+00:00", "available_bike_stands": "12", "number": "84", "available_bikes": "10", "name": "R\u00c9GION", "address": "Rue de la Loire - place Gaston Defferre", "rental_methods": null, "bike_stands": 22, "position": {"lon": -1.525933, "lat": 47.210742}}, {"last_update": "2025-12-04T10:26:58+00:00", "available_bike_stands": "9", "number": "97", "available_bikes": "10", "name": "SAINT DONATIEN", "address": "Place du 51\u00e8me R\u00e9giment d'Artillerie", "rental_methods": null, "bike_stands": 19, "position": {"lon": -1.540293, "lat": 47.229088}}, {"last_update": "2025-12-04T10:26:58+00:00", "available_bike_stands": "16", "number": "103", "available_bikes": "5", "name": "GRUE JAUNE", "address": "Grue Jaune - Face au mail des Chantiers", "rental_methods": null, "bike_stands": 21, "position": {"lon": -1.569191, "lat": 47.204879}}, {"last_update": "2025-12-04T10:26:58+00:00", "available_bike_stands": "2", "number": "105", "available_bikes": "13", "name": "HANGAR \u00c0 BANANES", "address": "Boulevard des Antilles - quai Pr\u00e9sident Wilson - Grue Titan Grise", "rental_methods": null, "bike_stands": 15, "position": {"lon": -1.573184, "lat": 47.199408}}, {"last_update": "2025-12-04T10:26:58+00:00", "available_bike_stands": "18", "number": "110", "available_bikes": "2", "name": "AUDITORIUM", "address": "1, avenue de Bretagne - REZ\u00c9", "rental_methods": null, "bike_stands": 20, "position": {"lon": -1.554025, "lat": 47.185402}}, {"last_update": "2025-12-04T10:26:58+00:00", "available_bike_stands": "15", "number": "114", "available_bikes": "10", "name": "ATOUTSUD", "address": "Angle rue de l'Abb\u00e9 Gr\u00e9goire - avenue Mar\u00e9chal de Tassigny - REZ\u00c9", "rental_methods": "creditcard", "bike_stands": 25, "position": {"lon": -1.570365, "lat": 47.194493}}, {"last_update": "2025-12-04T10:26:58+00:00", "available_bike_stands": "8", "number": "118", "available_bikes": "6", "name": "\u00c9GALIT\u00c9", "address": "Boulevard L\u00e9on Jouhaux", "rental_methods": null, "bike_stands": 14, "position": {"lon": -1.589002, "lat": 47.209661}}, {"last_update": "2025-12-04T10:26:58+00:00", "available_bike_stands": "12", "number": "121", "available_bikes": "3", "name": "VICTOR RICHARD", "address": "12, place Victor Richard", "rental_methods": null, "bike_stands": 15, "position": {"lon": -1.533329, "lat": 47.228614}}, {"last_update": "2025-12-04T10:26:58+00:00", "available_bike_stands": "15", "number": "122", "available_bikes": "0", "name": "MITRIE", "address": "5, route de Sainte Luce", "rental_methods": null, "bike_stands": 15, "position": {"lon": -1.526193, "lat": 47.22865}}, {"last_update": "2025-12-04T10:26:58+00:00", "available_bike_stands": "9", "number": "127", "available_bikes": "6", "name": "P+R BAS DE CHANTENAY", "address": "P+R Bas Chantenay, boulevard de Chantenay 44100 NANTES", "rental_methods": null, "bike_stands": 15, "position": {"lon": -1.59119, "lat": 47.195955}}, {"last_update": "2025-12-04T10:26:58+00:00", "available_bike_stands": "15", "number": "3", "available_bikes": "0", "name": "STRASBOURG", "address": "4, rue des Carm\u00e9lites - Place Tirant Lo Blanc", "rental_methods": null, "bike_stands": 15, "position": {"lon": -1.551979, "lat": 47.21682}}, {"last_update": "2025-12-04T10:26:58+00:00", "available_bike_stands": "4", "number": "14", "available_bikes": "10", "name": "SAINT F\u00c9LIX", "address": "35, Boulevard Amiral Courbet", "rental_methods": null, "bike_stands": 14, "position": {"lon": -1.556133, "lat": 47.230334}}, {"last_update": "2025-12-04T10:26:58+00:00", "available_bike_stands": "5", "number": "19", "available_bikes": "10", "name": "SAINT SIMILIEN", "address": "1, place Saint Similien", "rental_methods": null, "bike_stands": 15, "position": {"lon": -1.558921, "lat": 47.219854}}, {"last_update": "2025-12-04T10:26:58+00:00", "available_bike_stands": "7", "number": "20", "available_bikes": "8", "name": "BOUFFAY", "address": "7, all\u00e9e du Port Maillard - Cours Franklin Roosevelt", "rental_methods": null, "bike_stands": 15, "position": {"lon": -1.552782, "lat": 47.214301}}, {"last_update": "2025-12-04T10:26:58+00:00", "available_bike_stands": "13", "number": "25", "available_bikes": "2", "name": "DALBY", "address": "61, boulevard Ernest Dalby", "rental_methods": "creditcard", "bike_stands": 18, "position": {"lon": -1.530096, "lat": 47.223919}}, {"last_update": "2025-12-04T10:26:58+00:00", "available_bike_stands": "1", "number": "27", "available_bikes": "14", "name": "GUIST'HAU NORD", "address": "42, boulevard Gabriel Guist'Hau", "rental_methods": null, "bike_stands": 15, "position": {"lon": -1.569172, "lat": 47.21793}}, {"last_update": "2025-12-04T10:26:58+00:00", "available_bike_stands": "13", "number": "28", "available_bikes": "3", "name": "CARRI\u00c8RE MISERY", "address": "Rue Joseph Cholet", "rental_methods": null, "bike_stands": 16, "position": {"lon": -1.579904, "lat": 47.200072}}, {"last_update": "2025-12-04T10:26:58+00:00", "available_bike_stands": "18", "number": "29", "available_bikes": "8", "name": "DUGUAY TROUIN", "address": "18, all\u00e9e Duguay Trouin", "rental_methods": "creditcard", "bike_stands": 26, "position": {"lon": -1.557306, "lat": 47.212696}}, {"last_update": "2025-12-04T10:26:58+00:00", "available_bike_stands": "5", "number": "36", "available_bikes": "9", "name": "ALGER", "address": "10, rue d'Alger", "rental_methods": null, "bike_stands": 15, "position": {"lon": -1.567368, "lat": 47.210549}}, {"last_update": "2025-12-04T10:26:58+00:00", "available_bike_stands": "17", "number": "40", "available_bikes": "4", "name": "MADELEINE", "address": "Quai Moncousu - Pont G\u00e9n\u00e9ral Audibert", "rental_methods": null, "bike_stands": 21, "position": {"lon": -1.550412, "lat": 47.208805}}, {"last_update": "2025-12-04T10:26:58+00:00", "available_bike_stands": "5", "number": "45", "available_bikes": "8", "name": "PRAIRIE AU DUC", "address": "25, boulevard de la Prairie au Duc", "rental_methods": null, "bike_stands": 13, "position": {"lon": -1.558923, "lat": 47.204784}}, {"last_update": "2025-12-04T10:26:58+00:00", "available_bike_stands": "8", "number": "47", "available_bikes": "19", "name": "MARTYRS NANTAIS", "address": "1, boulevard des Martyrs Nantais de la R\u00e9sistance", "rental_methods": "creditcard", "bike_stands": 27, "position": {"lon": -1.548169, "lat": 47.206933}}, {"last_update": "2025-12-04T10:26:58+00:00", "available_bike_stands": "3", "number": "50", "available_bikes": "13", "name": "CH\u00c2TEAU", "address": "7, rue des Etats", "rental_methods": "creditcard", "bike_stands": 16, "position": {"lon": -1.550226, "lat": 47.21515}}, {"last_update": "2025-12-04T10:26:58+00:00", "available_bike_stands": "10", "number": "80", "available_bikes": "5", "name": "VICTOR HUGO", "address": "25, boulevard Victor Hugo - 28, boulevard Gustave Roch", "rental_methods": null, "bike_stands": 15, "position": {"lon": -1.551548, "lat": 47.204003}}, {"last_update": "2025-12-04T10:26:58+00:00", "available_bike_stands": "8", "number": "96", "available_bikes": "8", "name": "TORTI\u00c8RE", "address": "Pont de la Torti\u00e8re - boulevard Eug\u00e8ne Orieux", "rental_methods": "creditcard", "bike_stands": 16, "position": {"lon": -1.549222, "lat": 47.235335}}, {"last_update": "2025-12-04T10:26:58+00:00", "available_bike_stands": "19", "number": "120", "available_bikes": "11", "name": "ROND-POINT DE PARIS", "address": "16, boulevard Jules Verne", "rental_methods": "creditcard", "bike_stands": 30, "position": {"lon": -1.534981, "lat": 47.234853}}, {"last_update": "2025-12-04T10:26:58+00:00", "available_bike_stands": "4", "number": "17", "available_bikes": "10", "name": "SAINTE \u00c9LISABETH", "address": "4, place Sainte Elisabeth", "rental_methods": null, "bike_stands": 14, "position": {"lon": -1.56157, "lat": 47.219214}}]}